address,lat,lon
가음정로23번길,35.210463918,128.688074461
삼귀로466번길,35.157424277,128.609615034
귀산로60번길,35.166640992,128.615919160
진해대로597번길,35.158493401,128.681922556
조천로17번길,35.160236011,128.684409375
웅천동로49번길,35.100290284,128.753127387
웅천중로50번길,35.110086415,128.750594038
남영로491번길,35.114906469,128.780736018
대장로163번길,35.138817807,128.778240667
태평로92번안길,35.143613705,128.668621656
속천로52번안길,35.141556530,128.668933014
마천로103번길,35.133918892,128.783965213
우도로5번길,35.088397952,128.722139154
명동로5번길,35.097602596,128.718203044
명제로370번길,35.094834296,128.731272470
웅천북로39번길,35.117356614,128.747535370
웅천북로191번길,35.122305582,128.735063937
냉천로36번길,35.150094810,128.702255680
소사천로,35.126372507,128.778139800
안골로220번나길,35.092109677,128.796358115
안골로220번가길,35.091951440,128.798227714
여좌로70번길,35.157406585,128.663339564
여좌로11번길,35.153343210,128.664615213
여좌로118번다길,35.162786991,128.663939760
용원남로27번길,35.096835475,128.817380153
용원남로17번안길,35.094547305,128.817872235
벚꽃로50번안길,35.150522273,128.662856886
인사로22번길,35.149567565,128.668664539
백구로6번길,35.147062309,128.662968336
청안로150번길,35.103336501,128.792249696
태백서로47번길,35.156802747,128.674163229
행암로217번길,35.115791566,128.702423011
교방서6길,35.212092312,128.564269106
교방동15길,35.210280900,128.566307838
노산서23길,35.212957188,128.572810384
교방동10길,35.210016163,128.564022076
교방동16길,35.210089981,128.564560411
교방동14길,35.210050864,128.564454472
교방동17길,35.210496431,128.566410322
교방동19길,35.209900148,128.566612473
교방동11길,35.210229849,128.564331784
교방동20길,35.210135407,128.564866444
노산서19길,35.215708655,128.569477178
노산남8길,35.213943913,128.570664851
노산서25길,35.212261928,128.571243560
노산남11길,35.211227242,128.571734810
노산서20길,35.215524125,128.568136107
장구길,35.080573369,128.565828103
난포2길,35.081189972,128.604619171
난포1길,35.081612105,128.603036203
욱곡2길,35.096763102,128.557729960
욱곡1길,35.095984124,128.556995352
심리3길,35.068983423,128.607242981
월영북13길,35.182535566,128.556695649
문화서12길,35.187902845,128.555928048
반월북7길,35.190755091,128.559415064
반월남7길,35.190243731,128.559197129
산호남11길,35.214805968,128.586069931
합포북21길,35.214679278,128.577075584
합포북9길,35.211824996,128.579127072
합포북3길,35.211478215,128.580437212
산호남9길,35.215596960,128.584052221
합포남10길,35.209811261,128.580897253
합포남1길,35.210363470,128.583075957
합포북10길,35.212101849,128.579892249
산호남10길,35.215868283,128.585294262
합포남8길,35.210343143,128.581665651
합포서2길,35.210268516,128.578428700
합포서7길,35.210040606,128.576624503
노산동8길,35.214319229,128.575798961
합포서11길,35.211125168,128.578398297
노산북9길,35.213626058,128.573189843
노산남2길,35.212889679,128.571749736
합포서1길,35.209962977,128.579040128
합포서12길,35.211908072,128.578254247
합포서4길,35.210534649,128.577671594
동서북5길,35.204056447,128.573481109
동서남5길,35.201793513,128.567882595
동서북1길,35.203524521,128.572677775
성호동3길,35.210313455,128.570697191
성호서7길,35.208152059,128.569602791
성호북3길,35.211287603,128.570742010
성호서5길,35.208532065,128.570220770
성호서9길,35.208963051,128.569890459
성호서13길,35.209717524,128.567929131
동서북6길,35.204154017,128.574292969
반월북9길,35.191050257,128.559658688
오동북6길,35.207367154,128.579076133
오동북17길,35.207666414,128.578044998
오동북10길,35.208525297,128.578964190
완월남6길,35.196282890,128.558168728
완월북7길,35.199681945,128.559754525
완월북14길,35.199941336,128.558745514
완월북13길,35.199241848,128.557609805
완월동19길,35.200613292,128.564243868
완월서2길,35.200023575,128.549210080
완월북4길,35.198966782,128.562433125
완월남1길,35.196598596,128.561337851
완월남2길,35.197124937,128.559113804
완월동4길,35.197527870,128.563826634
완월동18길,35.200371637,128.564345823
완월북6길,35.198989167,128.560407707
완월동3길,35.197213058,128.563102197
문화동2길,35.187599099,128.562848860
월영북4길,35.181528941,128.556413401
월영북3길,35.181250548,128.557070993
월영북2길,35.181078368,128.556771856
월영남13길,35.177730289,128.560568350
월영남1길,35.179279534,128.557754814
문화서17길,35.187533917,128.552357011
월영남4길,35.177642781,128.557663453
월영서1길,35.178988860,128.555794880
월영서10길,35.173801981,128.555915241
월영남15길,35.177443738,128.561093196
월영북1길,35.180309544,128.556368413
월영남19길,35.176239296,128.562764971
문화서13길,35.188321590,128.554854728
월영남3길,35.179290977,128.556590925
월영북6길,35.181885166,128.555547643
월영서5길,35.177617268,128.555500133
자산동2길,35.204364732,128.564525239
자산서14길,35.200596094,128.558338359
자산동13길,35.204983034,128.566577133
자산남11길,35.201984546,128.563296215
자산동3길,35.204624846,128.564861934
자산남13길,35.201311623,128.564243286
자산동15길,35.205878883,128.567044564
자산남2길,35.202295019,128.564343269
자산동7길,35.203950327,128.566715653
자산동16길,35.204423738,128.568068429
자산동14길,35.205453281,128.565856205
자산남6길,35.202428222,128.566009949
반월북4길,35.191849442,128.561402885
완월동15길,35.199716106,128.566439602
오동서18길,35.209842125,128.573424601
오동서17길,35.209900544,128.574193651
오동서10길,35.208266222,128.576028771
오동서12길,35.209113397,128.575586302
오동서1길,35.206890950,128.576317340
오동서19길,35.210326231,128.573088012
고현장터길,35.101302021,128.478596682
다구1길,35.105690830,128.520023810
죽전안담길,35.106084861,128.477621395
진동신기길,35.111985630,128.481807140
광암3길,35.105255757,128.498375317
요장1길,35.111110368,128.489579644
주도해안길,35.098994275,128.507313412
광암1길,35.107280349,128.496369504
요장해안길,35.107689426,128.492809396
입곡길,35.137677314,128.511042521
성산안길,35.114921602,128.489262045
대평안길,37.131371456,126.843161836
덕곡안길,35.439241751,128.549161633
진북예곡3길,35.116534997,128.454438678
진북예곡1길,35.111207481,128.458009800
지산3길,35.115665183,128.467157359
지산1길,37.207227138,127.112463295
지산2길,37.205643749,127.113050583
지산5길,35.115502883,128.467432811
외추길,35.157394647,128.479757335
거락1길,35.141960299,128.372826110
곡안1길,35.109984243,128.414155237
금암중촌길,35.139285044,128.383690718
도산길,35.699440513,128.020531515
진전봉암길,35.132678099,128.368085871
시락본동길,35.076485528,128.435237858
대정5길,35.131895527,128.374655457
오서5길,35.102544497,128.413814229
미천2길,35.152116721,128.404661242
문화동8길,35.184130552,128.561582941
성호남6길,35.205101284,128.570749516
성호남4길,35.205386935,128.570749243
성호동4길,35.207773698,128.571609403
문화북6길,35.188805253,128.559026616
월영북9길,35.183561976,128.555332840
진해대로563번길,35.157160954,128.678532592
월남로104번길,35.118760263,128.775479485
월남로30번길,35.112109668,128.769443750
속천로88번길,35.139303941,128.671908570
웅동로121번안길,35.127533599,128.790853883
마천로18번안길,35.125718938,128.785589832
웅동로107번길,35.123506268,128.788133755
명동로83번길,35.096467142,128.720554710
명제로324번길,35.095076442,128.728533944
웅천중로56번길,35.111155898,128.750655850
소사천로40번길,35.127621081,128.775316780
소사로43번나길,35.128071505,128.776390334
수도로40번길,35.084796320,128.747088160
충장로43번길,35.153684738,128.657236803
여좌로118번나길,35.162350227,128.664819924
용재로67번길,35.102032288,128.817286294
충장로467번길,35.147556539,128.700802941
충장로671번길,35.130105439,128.705335724
진해대로1167번길,35.126029140,128.713448164
태평로37번안길,35.146510616,128.663854597
인사로30번길,35.150022464,128.669915466
청안로233번길,35.100711037,128.800640952
청안로163번길,35.103871357,128.794981549
대야남로63번길,35.154788551,128.671194810
대야로66번길,35.157485840,128.670242316
태평로91번길,35.145500506,128.669218615
구암남18길,35.249518908,128.602092131
구암동5길,35.253202452,128.600972866
구암남23길,35.251686969,128.602332392
구암북20길,35.258649923,128.595872838
삼계9길,35.232830984,128.499878943
원계증산길,35.231338586,128.510175484
죽암동길,35.257221843,128.509831165
중리본동길,35.251977721,128.511287487
죽암서길,35.254631477,128.509776620
평성1길,35.259620778,128.538187253
호계본동4길,35.266581730,128.518470525
두척1길,35.237717050,128.542959595
석전남15길,35.226076265,128.571125126
석전남14길,35.226199587,128.571070342
석전남12길,35.227876627,128.573449927
석전남7길,35.227641285,128.573515847
석전남2길,35.228275197,128.573144528
석전북21길,35.231090411,128.568502506
석전남16길,35.228871608,128.568843422
석전서5길,35.228101951,128.568319431
석전서4길,35.227220195,128.569096659
석전북14길,35.233186251,128.569284065
양덕동15길,35.234129556,128.588644843
양덕동16길,35.235254819,128.589869198
양덕동8길,35.230221501,128.583162804
양덕동5길,35.231501814,128.583162066
합성남18길,35.235248513,128.590431676
합성남19길,35.235544117,128.590685446
합포성지길,35.243400657,128.583269896
합성동8길,35.242499038,128.587411276
합성남17길,35.235556224,128.590082606
합성서12길,35.239553563,128.580501456
회성동2길,35.233823379,128.563350440
회성북6길,35.235493524,128.558694149
회원북10길,35.220791673,128.565900966
회원북6길,35.221843973,128.570601552
회원북15길,35.220493092,128.566717944
회원북4길,35.220802819,128.566016612
회원남3길,35.218148044,128.566242332
노산서26길,35.212254336,128.571446874
회원북19길,35.219469197,128.565975262
회원남11길,35.217003226,128.569936144
회원북2길,35.220146788,128.570175272
회원북16길,35.220485567,128.566981441
회원남6길,35.215451779,128.567723253
회원동33길,35.222206015,128.573882142
회원북5길,35.221604863,128.570592510
삼귀로486번길,35.155823574,128.610766044
양곡길106번길,35.200304676,128.627066280
가술길34번길,35.337172634,128.707031745
진산대로443번길,35.339644276,128.707829827
주남로503번길,35.329832446,128.704268118
가술길23번길,35.336097155,128.706960576
가술산남로130번길,35.327783358,128.687113584
봉강가술로471번길,35.337169749,128.698044931
봉강가술로411번길,35.341981494,128.695156412
봉강가술로358번길,35.344819632,128.690616262
모산길30번길,35.353513869,128.712378174
모산길57번길,35.356401539,128.711982509
진산대로528번길,35.347099678,128.711411895
대산북로893번길,35.347186620,128.723427783
대산북로895번길,35.347002549,128.723568674
우암로99번길,35.329873764,128.732985128
북부로10번길,35.339075229,128.726138830
우암로79번길,35.330993664,128.732044892
제동길43번길,35.333971708,128.713075469
주남로416번길,35.322715972,128.701378924
진산대로287번길,35.326417509,128.713491937
주남로394번길,35.320737505,128.698901220
주남로434번길,35.323422668,128.701508293
대원로52번길,36.642544285,127.478711251
대원로56번길,36.642644505,127.478793449
동읍로670번길,35.323602187,128.665113257
동읍로661번길,35.322642703,128.662201040
노연로69번길,35.360507296,128.660588539
주남로64번길,35.300358033,128.674470363
무성길47번길,35.289348678,128.699385681
무점길88번길,35.292127362,128.694918779
동읍로1187번길,35.355560856,128.653864454
동읍로1057번길,35.344219979,128.659548464
동읍로1079번길,35.345498673,128.657299919
죽동길25번길,35.332132668,128.674139441
석산길51번길,35.317402630,128.659426558
석산길61번길,35.318258876,128.660354510
동읍로213번길,35.293553702,128.675213193
동읍로224번길,35.295444370,128.675846828
의창대로894번길,35.278677810,128.688495595
주남로235번길,35.310396594,128.691984698
주남로61번길,35.303430779,128.674055295
주남로128번길,35.305065576,128.682305107
주남로17번길,35.301649692,128.670135824
죽동길53번길,35.331151451,128.675990532
동읍로457번길,35.306687523,128.654534970
화양길76번길,35.295657705,128.644068993
동읍로503번길,35.311064597,128.656520905
동읍로401번길,35.302381933,128.659337296
서상로35번길,35.263728660,128.616519654
동정길35번길,35.264954222,128.613576300
천주로157번길,35.275283925,128.615303580
내감1길,35.300292129,128.592021967
단내로591번길,35.344093710,128.582067749
무릉산길223번길,35.340632896,128.577202429
구룡로312번길,35.306251548,128.636936103
대산길156번길,35.314097719,128.622798541
천주로862번길,35.330425566,128.600991960
운무로681번길,35.325932357,128.578245958
온천로612번길,35.357675157,128.586508694
온천로643번길,35.361158211,128.589179641
온천로580번길,35.358450902,128.584316823
천주로1269번길,35.359868629,128.617988337
외감로35번길,35.290619138,128.599306967
외감로97번길,35.294726391,128.593951440
외산로341번길,35.384643562,128.597581574
월계길9번길,35.352461659,128.634918242
백월로87번월촌길,35.320139190,128.616948484
천주로192번길,35.278237169,128.615840452
하천로86번길,35.365743881,128.602782001
하천로63번길,35.365853679,128.599649089
의창대로254번길,35.259853369,128.625585729
소계로90번길,35.257273215,128.599115476
동산로175번길,35.223300890,128.694111352
의창대로266번길,35.260757682,128.627286951
팔용로400번길,35.252510822,128.611363325
충장로297번길,35.153723834,128.684427057
진해대로583번길,35.157576561,128.679286423
웅천중로51번길,35.110362569,128.749585647
웅천중로33번길,35.109318480,128.749182813
웅천로335번길,35.115702902,128.766379161
웅동로111번길,35.123265305,128.788923610
명동로41번길,35.096609342,128.718017895
웅천로177번길,35.113820173,128.749448070
소사천로26번길,35.127442770,128.776171649
대야남로35번길,35.153630230,128.668825862
여좌천로120번길,35.163483761,128.661577944
냉천로30번길,35.150212844,128.701533605
인사로38번길,35.149087089,128.670290612
인사로28번길,35.150090110,128.669654598
충장로176번길,35.151474031,128.670376888
속천로23번길,35.143872760,128.671074833
노산남10길,35.212253664,128.571062303
아랫석곡길,35.114823388,128.563015625
옥계안길,38.122230687,127.049144545
월영북14길,35.182052882,128.556905955
덕동남2길,35.138766055,128.578156847
덕동남3길,35.139966374,128.575814831
문화서8길,35.186959929,128.555246268
합포북6길,35.211182545,128.579348497
산호동9길,35.213547224,128.587016211
합포서8길,35.210789173,128.576211293
노산북2길,35.214776199,128.571608543
동서남3길,35.200964432,128.568809912
성호서8길,35.208388241,128.569672811
성호동2길,35.208175857,128.572340515
반월서1길,35.193262187,128.560581535
반월서5길,35.192494883,128.559994991
완월남5길,35.197084796,128.558204462
완월서1길,35.200156351,128.556542586
월영남17길,35.177075438,128.560822355
월영남11길,35.177965108,128.560078875
월영서2길,35.177925345,128.555799818
자산서9길,35.203514834,128.560480865
자산서4길,35.204552690,128.562302697
고현새동네길,35.103140683,128.479565961
주도1길,35.099978474,128.506834772
서동촌길,35.112730837,128.486652558
귀정길,35.163344380,128.473604194
지산4길,35.115737035,128.468736584
추곡1길,35.157032281,128.479551910
원산2길,35.152447234,128.368698662
개양길,35.127955970,128.382424952
둔덕안담길,35.191970838,128.389459185
일암3길,35.116356809,128.375331346
평암로,35.147882712,128.384693048
가술길1번길,35.334217561,128.707692419
가술길,35.334389558,128.707764868
주남로327번길,35.315546229,128.693050772
주남로483번길,35.327482765,128.703931498
진산대로260번길,35.325458651,128.716790361
동읍로112번길,35.285967040,128.680603517
주남로71번길,35.304503835,128.675068459
동정길51번길,35.265681185,128.615704731
동정길43번길,35.265580591,128.614788259
봉곡로4번길,35.246171968,128.663066331
대봉로42번길,35.254307739,128.667632913
내감2길,35.301585867,128.590786541
구룡로339번길,35.301856550,128.624259250
신촌본포로186번길,35.346927212,128.626162953
구룡로38번길,35.286372357,128.614027508
하천로132번길,35.368005158,128.604063552
구암남20길,35.249460382,128.603161272
삼계본동2길,35.230870165,128.497344158
윗구슬길,35.239056823,128.531731664
호계본동1길,35.268414786,128.522175804
두척2길,35.237146460,128.542384991
석전북9길,35.232876979,128.571095584
석전남23길,35.226451991,128.570941205
양덕서9길,35.224009931,128.578366093
합성남14길,35.235082045,128.590462003
합성남13길,35.237318884,128.586707280
합성남6길,35.235802239,128.582644333
회성동4길,35.232876462,128.564570508
바냇들1길,35.219244725,128.578469647
회원동6길,35.216377578,128.572298889
회원동1길,35.218016530,128.571330976
회원동20길,35.223810622,128.572094480
회원동22길,35.225323073,128.572000665
회원동19길,35.223536158,128.571316911
조천북로97번나길,35.163440207,128.681584915
웅천중로33번안길,35.108874566,128.748667298
남영로467번길,35.109015018,128.774760263
진해대로882번길,35.150475997,128.705259602
웅천중로55번길,35.111352505,128.749212420
소사로5번길,35.125652745,128.780468940
소사로59번가길,35.130054944,128.776410826
수도로34번길,35.084749017,128.746665563
진해대로2457번길,35.103229131,128.826341750
태평로37번길,35.146980758,128.663963891
어은로23번길,35.114637211,128.727522571
어은로35번길,35.115578670,128.729053925
귀산로80번길,35.168079273,128.616319379
귀산로52번길,35.165572852,128.615833899
귀산로86번길,35.169008827,128.614953946
웅천북로19번길,35.115344037,128.747644049
여좌로104번길,35.160855306,128.663597232
행암로66번길,35.128765223,128.702262836
진해대로1162번길,35.125701925,128.711116859
제덕로179번안길,35.099536794,128.744381892
진해대로1033번안길,35.137746650,128.711335722
구암북13길,35.255754555,128.598457781
구암동6길,35.254234381,128.600697154
구암남21길,35.252022633,128.602119362
호계본동3길,35.265792309,128.519189037
호계본동2길,35.265537333,128.519899317
석전북8길,35.233164732,128.572020401
석전남11길,35.225820313,128.571174243
석전서3길,35.228391079,128.568303003
석전남18길,35.228230845,128.568954035
석전서1길,35.229496929,128.567420483
석전북17길,35.231202915,128.566451619
석전북20길,35.231251653,128.567919259
석전남22길,35.228113264,128.573013100
양덕동19길,35.232559010,128.588620579
양덕북23길,35.234659804,128.581669457
양덕동18길,35.233855711,128.589606482
합성동4길,35.243217085,128.587059846
합성남5길,35.236078291,128.582520141
회성남9길,35.232159960,128.558678192
회성남21길,35.230922931,128.565291230
회성북7길,35.236033051,128.561021293
회성북3길,35.235812770,128.560042819
회성동6길,35.232957799,128.565473948
회성북1길,35.235023289,128.559960095
회원남29길,35.218008319,128.562634286
회원남1길,35.217030847,128.570023021
교방북1길,35.214882321,128.564216515
회원북17길,35.220598172,128.566819915
회원남28길,35.217792868,128.569877978
회원남27길,35.217904861,128.562581994
회원남30길,35.217736026,128.562567737
회원북22길,35.218982873,128.565518921
회원동25길,35.218415962,128.575901058
회원동23길,35.223443616,128.572589943
앵지밭골4길,35.221052708,128.556151978
앵지밭골2길,35.219887302,128.558313955
교방동13길,35.210252190,128.564502074
교방남5길,35.209865048,128.565922394
교방남7길,35.210080591,128.567466287
노산서24길,35.212372696,128.573222243
노산서22길,35.212118332,128.571492912
조밭길,35.063837621,128.559234032
내포3길,35.094910891,128.582584908
실리섬길,35.063546127,128.637693019
반월북8길,35.191599808,128.560721265
문화북10길,35.186152456,128.556994757
문화북8길,35.189363686,128.558636221
합포북11길,35.212397388,128.579374496
합포북14길,35.212760337,128.581765924
산호북7길,35.218758408,128.585441497
노산동6길,35.213387713,128.575766031
노산북5길,35.213846468,128.571695362
노산동2길,35.213059164,128.574746724
노산북4길,35.215315154,128.572448213
동서북3길,35.204048322,128.572611425
성호서12길,35.210290136,128.568846416
반월서6길,35.192532500,128.559624130
반월서8길,35.193542730,128.558869029
오동북1길,35.208606370,128.581162454
완월북9길,35.198575175,128.558983794
완월동9길,35.198713320,128.563328602
완월남11길,35.195345609,128.559648188
완월동21길,35.201097175,128.563013567
완월북8길,35.199329530,128.558886344
완월동10길,35.199189461,128.563813754
완월남3길,35.195141594,128.559278831
완월북1길,35.197987197,128.561638984
완월북11길,35.198238134,128.557266804
반월남4길,35.189304993,128.559678037
월영북8길,35.182242415,128.555058099
월영서9길,35.176167502,128.556193426
문화서18길,35.186551691,128.551873210
문화서5길,35.187017668,128.553194786
자산동18길,35.204584294,128.567258207
자산남9길,35.201234479,128.565056184
완월동6길,35.197424761,128.564948396
오동서14길,35.208747024,128.573878193
도만1길,35.116958237,128.531844906
도만2길,35.116123966,128.533292654
동전길,35.151991113,128.516591229
서북동길,35.160092884,128.427019298
추곡2길,35.157961051,128.478624305
곡안2길,35.110068414,128.414463351
금암상촌길,35.137970401,128.389748332
오서8길,35.102199567,128.417145969
목화전길,35.091696147,128.453815259
성호서1길,35.207289778,128.570503583
성호남5길,35.205734356,128.571603481
성호남7길,35.204503679,128.570334484
삼계11길,35.237088201,128.503602449
삼계7길,35.230908043,128.501554158
상곡안길,35.243756865,128.503478199
봉암북12길,35.219825415,128.599675348
석전남19길,35.227963853,128.572977135
석전남21길,35.227976267,128.572883157
양덕서6길,35.231537437,128.580095665
합성남16길,35.236725037,128.589668304
합성북7길,35.243379226,128.578954504
합성북24길,35.247708921,128.577620315
회성남8길,35.231926056,128.557361400
회성북8길,35.236163278,128.558852104
회성북13길,35.235757373,128.556888205
회성북4길,35.235282003,128.559367477
회성남22길,35.230558050,128.566097566
회원남5길,35.216849379,128.570055000
회원남10길,35.218069576,128.568455779
회원남26길,35.217971250,128.563666922
회원북20길,35.220400922,128.566295561
교방동3길,35.212735630,128.566048062
심리2길,35.069304146,128.607077190
구산신촌3길,35.095632533,128.585342834
오동동3길,35.205233392,128.579258458
문화북9길,35.186965709,128.557548806
반월서11길,35.190298089,128.558391343
반월서10길,35.191166703,128.558553203
오동북14길,35.208861049,128.576861612
오동북4길,35.207565153,128.580712851
완월남10길,35.196330534,128.559667626
월영북10길,35.182726736,128.555992575
월영남8길,35.175680545,128.557313700
반월동3길,35.190801361,128.564349570
자산서1길,35.204156478,128.564041797
반월동2길,35.190568688,128.563758245
대티1길,35.166835442,128.467295148
동서북13길,35.206339213,128.573974264
가술산남로127번길,35.326787540,128.686557078
주남로285번길,35.313554438,128.693878683
무성길85번길,35.290818009,128.700691021
동읍로1223번길,35.357225831,128.653165107
죽동길46번길,35.330975962,128.675616441
동읍로359번길,35.300515035,128.663024129
구암반계길,35.249223467,128.602789882
온천로587번길,35.360123716,128.582888408
백월로167번길,35.320331010,128.625237096
구룡로79번길,35.287872652,128.618191570
구룡로544번길,35.299319301,128.607719192
평산로208번길,35.260048492,128.627049099
가술산남로40번길,35.323715931,128.695715516
유등로369번길,35.344706948,128.743824264
제동길,35.336462364,128.719143584
무성길91번길,35.291198248,128.700577152
구룡로314번길,35.303949060,128.627069534
외산로157번길,35.376413865,128.590227081
외산로335번길,35.383815454,128.598004495
송정아랫담길,35.243211957,128.552819153
회성북9길,35.236521350,128.552946834
회성동9길,35.234022286,128.565571279
석전북10길,35.233435067,128.571705538
양덕동17길,35.233643205,128.589916173
합성동1길,35.242101296,128.585733574
회성서2길,35.234668371,128.551988114
회성서1길,35.234722292,128.551849053
회원남24길,35.218044612,128.562508694
윗용호길,35.071859583,128.597912459
심리1길,35.070347091,128.606139699
사궁두미길,35.140059471,128.578667181
합포북16길,35.213004749,128.578985269
노산동1길,35.211889731,128.571047593
월영남20길,35.175255077,128.561574575
문화서16길,35.187026424,128.552064085
죽전샛길,35.104488114,128.478442232
주도2길,35.099645634,128.506534519
웃소포길,35.075770212,128.452352656
조천북로97번가길,35.162940378,128.683554005
웅동로73번길,35.125361233,128.784357005
마천로10번길,35.125411063,128.784926250
웅천서로112번길,35.110532382,128.747529079
인사로36번길,35.149190291,128.670039149
태백서로46번길,35.155890791,128.673765340
가술길21번길,35.335443478,128.706532290
가술산남로34번길,35.322718924,128.695532024
봉강가술로394번길,35.343613764,128.693271956
모산길56번길,35.355780098,128.713098739
모산길41번길,35.355132561,128.710918321
모산길46번길,35.355012352,128.712202292
대산북로899번길,35.347743532,128.724476451
제동길49번길,35.335047054,128.713484277
동읍로267번다호길,35.297287829,128.671430015
동읍로1310번길,35.363915241,128.648232984
의창대로491번길,35.276127546,128.647519230
용남길86번길,35.277167482,128.657812216
천주로121번길,35.274830447,128.602290302
외산로388번길,35.388002163,128.601304237
외산로217번길,35.379228320,128.595635961
신촌본포로333번길,35.360529145,128.632342151
구복길,35.070980741,128.566951322
문화서6길,35.187413238,128.553417869
문화서3길,35.186482037,128.553850816
반월남6길,35.189864685,128.559818213
합포북17길,35.213772431,128.578232347
반월서12길,35.190257087,128.558074079
오동동9길,35.207867623,128.582423193
완월북12길,35.198471311,128.558138228
만날고개2길,35.185475083,128.551537554
자산서3길,35.203999957,128.563395108
자산동12길,35.204957039,128.566365598
묵지길,35.158042932,128.529877495
미천1길,35.150039387,128.401480222
현동8길,35.146733618,128.555659970
묘촌2길,35.131586595,128.552427798
대산북로539번길,35.368435657,128.695310336
제동길42번길,35.333299083,128.712822205
덕산길43번길,35.271592262,128.674463613
동읍로1141번길,35.351076187,128.655127230
죽동길45번길,35.332069740,128.675648604
대산길38번길,35.306392987,128.622136466
백월로74번기곡길,35.319554373,128.619239832
창이대로457번길,35.240599937,128.686058156
